[
    {
        "longtidue": 37.1727776,
        "latidute": 38.99958,
        "detail": "",
        "name": "İktisadi Ve İdari Bilimler Fakültesi",
        "image": "http://iibf.harran.edu.tr/assets/uploads/sites/126/slides/4031018ec61204ac925431273f53f1d9.png"
    },
    {
        "longtidue": 37.1714829,
        "latidute": 39.0010009,
        "detail": "",
        "name": "Ziraat Fakültesi",
        "image": "http://ziraat.harran.edu.tr/assets/uploads/sites/52/gallery/510_14.jpg"
    },
    {
        "longtidue": 37.1695499,
        "latidute": 39.000208,
        "detail": "",
        "name": "Fen Edebiyat Fakültesi",
        "image": "http://web.harran.edu.tr/assets/uploads/sites/65/slides/41082ec451aec13deba37d9fc5b2f836.jpg"
    },
    {
        "longtidue": 37.1681363,
        "latidute": 38.9963038,
        "detail": "",
        "name": "İlahiyat Fakültesi",
        "image": "http://ilahiyat.harran.edu.tr/assets/uploads/sites/58/slides/3e4a17845286bba741a650f1ed9ae8d0.jpg"
    },
    {
        "longtidue": 37.1690977,
        "latidute": 38.9951007,
        "detail": "",
        "name": "El-Battani Kütüphanesi",
        "image": "http://library.harran.edu.tr/assets/uploads/sites/144/slides/b73d02b4997e78df87aadc318583166d.jpg"
    },
    {
        "longtidue": 37.1689399,
        "latidute": 38.9949026,
        "detail": "",
        "name": "Tıp Fakültesi",
        "image": "http://tip.harran.edu.tr/assets/uploads/sites/276/slides/877d17fb790da5565e49cd81f6f26cc2.jpg"
    },
    {
        "longtidue": 37.1707527,
        "latidute": 38.9964038,
        "detail": "",
        "name": "Sosyal Tesisler",
        "image": "http://sks.harran.edu.tr/assets/uploads/other/files/sks/images/Sosyal_tesis_oteli0%281%29.JPG"
    },
    {
        "longtidue": 37.1774734,
        "latidute": 38.9979727,
        "detail": "",
        "name": "Göbeklitepe Erkek Öğrenci Yurdur",
        "image": "http://owen.tuzitio.com/assets/camaleon_cms/image-not-found-4a963b95bf081c3ea02923dceaeb3f8085e1a654fc54840aac61a57a60903fef.png"
    },
    {
        "longtidue": 37.1746711,
        "latidute": 38.9984824,
        "detail": "",
        "name": "Hacer Ana Kız Öğrenci Yurdur",
        "image": "http://owen.tuzitio.com/assets/camaleon_cms/image-not-found-4a963b95bf081c3ea02923dceaeb3f8085e1a654fc54840aac61a57a60903fef.png"
    }
]